{"type": "FeatureCollection", "name": "ZillowNeighborhoods-TX", "crs": {"type": "name", "properties": {"name": "urn:ogc:def:crs:OGC:1.3:CRS84"}}, "features": [{"type": "Feature", "properties": {"State": "TX", "County": "Travis", "City": "Pflugerville", "Name": "Mountain Creek", "RegionID": "105704"}, "geometry": {"type": "Polygon", "coordinates": [[[-97.63297848799999, 30.432708335175505], [-97.62505964199994, 30.429434197175507], [-97.62755331699998, 30.42536055917561], [-97.63689206699996, 30.429352978175537], [-97.63297848799999, 30.432708335175505]]]}}, {"type": "Feature", "properties": {"State": "TX", "County": "Travis", "City": "Austin", "Name": "Barton Creek", "RegionID": "231200"}, "geometry": {"type": "Polygon", "coordinates": [[[-97.851946, 30.29642799917767], [-97.845955, 30.275742999177996], [-97.885087, 30.263884999178227], [-97.881252, 30.29573499917767], [-97.851946, 30.29642799917767]]]}}, {"type": "Feature", "properties": {"State": "TX", "County": "Travis", "City": "Austin", "Name": "Onion Creek", "RegionID": "236270"}, "geometry": {"type": "MultiPolygon", "coordinates": [[[[-97.804216, 30.119158999180495], [-97.804192, 30.119025999180504], [-97.80426725899997, 30.11908476318053], [-97.804216, 30.119158999180495]]], [[[-97.799974, 30.129818999180326], [-97.80029209099995, 30.129071376180388], [-97.79977673899998, 30.13035365418039], [-97.799974, 30.129818999180326]]], [[[-97.792721, 30.13253299918028], [-97.775261, 30.126546999180377], [-97.80659884199997, 30.112512018180674], [-97.798269, 30.13368499918026], [-97.792721, 30.13253299918028]]]]}}, {"type": "Feature", "properties": {"State": "TX", "County": "Travis", "City": "Austin", "Name": "Wells Branch", "RegionID": "238833"}, "geometry": {"type": "Polygon", "coordinates": [[[-97.668529, 30.461949999175033], [-97.666592, 30.45276999917516], [-97.671862, 30.42452799917563], [-97.697821, 30.440212999175344], [-97.668529, 30.461949999175033]]]}}, {"type": "Feature", "properties": {"State": "TX", "County": "Travis", "City": "Austin", "Name": "Montopolis", "RegionID": "235693"}, "geometry": {"type": "Polygon", "coordinates": [[[-97.71078092499994, 30.21216301017908], [-97.7060169249999, 30.232482011178707], [-97.69108685999993, 30.243982006178523], [-97.68330383699993, 30.22177596117887], [-97.71078092499994, 30.21216301017908]]]}}, {"type": "Feature", "properties": {"State": "TX", "County": "Travis", "City": "Pflugerville", "Name": "Springbrook", "RegionID": "254423"}, "geometry": {"type": "Polygon", "coordinates": [[[-97.65116734799993, 30.471501785174844], [-97.64418886499999, 30.466602000174955], [-97.64771808099992, 30.46140525717505], [-97.65613566299999, 30.46558549417494], [-97.65116734799993, 30.471501785174844]]]}}, {"type": "Feature", "properties": {"State": "TX", "County": "Travis", "City": "Pflugerville", "Name": "Windermere", "RegionID": "239037"}, "geometry": {"type": "Polygon", "coordinates": [[[-97.63923506499998, 30.46459087917498], [-97.63538604899998, 30.464842150174945], [-97.64882197099996, 30.449531442175232], [-97.65201711099996, 30.45644330017509], [-97.63923506499998, 30.46459087917498]]]}}, {"type": "Feature", "properties": {"State": "TX", "County": "Travis", "City": "Austin", "Name": "Barton Hills", "RegionID": "271296"}, "geometry": {"type": "Polygon", "coordinates": [[[-97.760703, 30.266656999178164], [-97.79631843999994, 30.2337364521787], [-97.805393, 30.231840999178758], [-97.811638, 30.23370499917868], [-97.760703, 30.266656999178164]]]}}, {"type": "Feature", "properties": {"State": "TX", "County": "Travis", "City": "Austin", "Name": "Bouldin", "RegionID": "271303"}, "geometry": {"type": "Polygon", "coordinates": [[[-97.74738573799993, 30.26258339617824], [-97.75355792399995, 30.238801008178584], [-97.76889292499993, 30.245887012178507], [-97.7545199679999, 30.26496818817819], [-97.74738573799993, 30.26258339617824]]]}}, {"type": "Feature", "properties": {"State": "TX", "County": "Travis", "City": "Austin", "Name": "Crestview", "RegionID": "271339"}, "geometry": {"type": "Polygon", "coordinates": [[[-97.71527091799993, 30.348762050176827], [-97.71955487799994, 30.33671997417703], [-97.7375179899999, 30.345416079176896], [-97.73089692399992, 30.356147016176728], [-97.71527091799993, 30.348762050176827]]]}}, {"type": "Feature", "properties": {"State": "TX", "County": "Travis", "City": "Austin", "Name": "Downtown", "RegionID": "271353"}, "geometry": {"type": "Polygon", "coordinates": [[[-97.73933691799994, 30.28100852317794], [-97.73153983599991, 30.274696023178016], [-97.7364620059999, 30.25069243017841], [-97.7567837279999, 30.26575964317819], [-97.73933691799994, 30.28100852317794]]]}}, {"type": "Feature", "properties": {"State": "TX", "County": "Travis", "City": "Austin", "Name": "Gateway", "RegionID": "271396"}, "geometry": {"type": "Polygon", "coordinates": [[[-97.74542776999994, 30.400445120176027], [-97.7331077529999, 30.396092592176068], [-97.73786525899993, 30.379597001176368], [-97.74581692399994, 30.391347011176137], [-97.74542776999994, 30.400445120176027]]]}}, {"type": "Feature", "properties": {"State": "TX", "County": "Travis", "City": "Austin", "Name": "Hyde Park", "RegionID": "271437"}, "geometry": {"type": "Polygon", "coordinates": [[[-97.7154412619999, 30.312193931177436], [-97.72984208199995, 30.298754249177644], [-97.73811685599992, 30.302782940177618], [-97.73127796299991, 30.313628163177427], [-97.7154412619999, 30.312193931177436]]]}}, {"type": "Feature", "properties": {"State": "TX", "County": "Travis", "City": "Austin", "Name": "St. Edwards", "RegionID": "271587"}, "geometry": {"type": "Polygon", "coordinates": [[[-97.7518459239999, 30.21592501117899], [-97.76358593499991, 30.223478999178855], [-97.75355792399995, 30.238801008178584], [-97.74124090899994, 30.233799997178686], [-97.7518459239999, 30.21592501117899]]]}}, {"type": "Feature", "properties": {"State": "TX", "County": "Travis", "City": "Pflugerville", "Name": "Pflugerville", "RegionID": "266739"}, "geometry": {"type": "Polygon", "coordinates": [[[-97.62018160399998, 30.41982618717569], [-97.62425524099996, 30.413344535175806], [-97.63135701699997, 30.41667123117574], [-97.62744915699994, 30.423107706175628], [-97.62018160399998, 30.41982618717569]]]}}, {"type": "Feature", "properties": {"State": "TX", "County": "Travis", "City": "Austin", "Name": "University of Texas", "RegionID": "271614"}, "geometry": {"type": "Polygon", "coordinates": [[[-97.73569797499994, 30.29215497017775], [-97.7230568949999, 30.285143738177833], [-97.73153983599991, 30.274696023178016], [-97.74194990699993, 30.283826732177886], [-97.73569797499994, 30.29215497017775]]]}}, {"type": "Feature", "properties": {"State": "TX", "County": "Travis", "City": "Pflugerville", "Name": "Gatlinburg", "RegionID": "266492"}, "geometry": {"type": "Polygon", "coordinates": [[[-97.60436675399995, 30.432094688175496], [-97.60964915799997, 30.422852861175663], [-97.61626092399996, 30.42606702317562], [-97.61044865699995, 30.43497859517546], [-97.60436675399995, 30.432094688175496]]]}}, {"type": "Feature", "properties": {"State": "TX", "County": "Travis", "City": "Austin", "Name": "Windsor Road", "RegionID": "271653"}, "geometry": {"type": "Polygon", "coordinates": [[[-97.75093436299994, 30.307084797177506], [-97.74319587799994, 30.305271787177556], [-97.75058835699991, 30.28010486717796], [-97.76418343099994, 30.28607624517784], [-97.75093436299994, 30.307084797177506]]]}}, {"type": "Feature", "properties": {"State": "TX", "County": "Travis", "City": "Austin", "Name": "Central East Austin", "RegionID": "271325"}, "geometry": {"type": "Polygon", "coordinates": [[[-97.7190737919999, 30.269906011178087], [-97.71327990899994, 30.263236941178207], [-97.7343640119999, 30.266747052178182], [-97.72997703199991, 30.278605628177996], [-97.7190737919999, 30.269906011178087]]]}}, {"type": "Feature", "properties": {"State": "TX", "County": "Travis", "City": "Austin", "Name": "Georgian Acres", "RegionID": "271398"}, "geometry": {"type": "Polygon", "coordinates": [[[-97.69250292399994, 30.360377011176656], [-97.70022197999992, 30.33933594117698], [-97.71258835799995, 30.347809244176858], [-97.69693200299992, 30.363213048176625], [-97.69250292399994, 30.360377011176656]]]}}, {"type": "Feature", "properties": {"State": "TX", "County": "Travis", "City": "Austin", "Name": "Allandale", "RegionID": "271286"}, "geometry": {"type": "Polygon", "coordinates": [[[-97.74342429099993, 30.361356840176665], [-97.73089692399992, 30.356147016176728], [-97.7438939189999, 30.325044825177226], [-97.75592219799995, 30.336771260177045], [-97.74342429099993, 30.361356840176665]]]}}, {"type": "Feature", "properties": {"State": "TX", "County": "Travis", "City": "Austin", "Name": "Govalle", "RegionID": "271400"}, "geometry": {"type": "Polygon", "coordinates": [[[-97.69550292899993, 30.26560449817818], [-97.69023488699992, 30.245405370178506], [-97.71355867699992, 30.250253088178436], [-97.7048650349999, 30.27244416817805], [-97.69550292899993, 30.26560449817818]]]}}, {"type": "Feature", "properties": {"State": "TX", "County": "Travis", "City": "Austin", "Name": "East Cesar Chavez", "RegionID": "271360"}, "geometry": {"type": "Polygon", "coordinates": [[[-97.72211991499995, 30.262558066178215], [-97.7295635029999, 30.247972429178468], [-97.7364620059999, 30.25069243017841], [-97.7343640119999, 30.266747052178182], [-97.72211991499995, 30.262558066178215]]]}}, {"type": "Feature", "properties": {"State": "TX", "County": "Travis", "City": "Austin", "Name": "North Shoal Creek", "RegionID": "271500"}, "geometry": {"type": "Polygon", "coordinates": [[[-97.72930792499994, 30.36192201217664], [-97.74509191599992, 30.361281009176665], [-97.73826544799994, 30.379816516176337], [-97.72652387099993, 30.37344608717642], [-97.72930792499994, 30.36192201217664]]]}}, {"type": "Feature", "properties": {"State": "TX", "County": "Travis", "City": "Austin", "Name": "Brentwood", "RegionID": "271311"}, "geometry": {"type": "Polygon", "coordinates": [[[-97.73692122199992, 30.31458085817738], [-97.74165059299992, 30.31558498917736], [-97.7375179899999, 30.345416079176896], [-97.71955487799994, 30.33671997417703], [-97.73692122199992, 30.31458085817738]]]}}, {"type": "Feature", "properties": {"State": "TX", "County": "Travis", "City": "Austin", "Name": "Franklin Park", "RegionID": "271391"}, "geometry": {"type": "Polygon", "coordinates": [[[-97.74534592499992, 30.183201011179488], [-97.7645065509999, 30.198176730179274], [-97.7534979799999, 30.21312402617902], [-97.7331187969999, 30.20317005517922], [-97.74534592499992, 30.183201011179488]]]}}, {"type": "Feature", "properties": {"State": "TX", "County": "Travis", "City": "Austin", "Name": "Galindo", "RegionID": "271393"}, "geometry": {"type": "Polygon", "coordinates": [[[-97.76805389999993, 30.228744979178767], [-97.77633788799994, 30.228059954178782], [-97.76902189599991, 30.246070007178496], [-97.75959093599994, 30.24213511317856], [-97.76805389999993, 30.228744979178767]]]}}, {"type": "Feature", "properties": {"State": "TX", "County": "Travis", "City": "Austin", "Name": "Johnston Terrace", "RegionID": "271442"}, "geometry": {"type": "Polygon", "coordinates": [[[-97.69102696699991, 30.24954106017844], [-97.69457400899995, 30.26244799217825], [-97.6726857619999, 30.2637440661782], [-97.6818709239999, 30.2519740121784], [-97.69102696699991, 30.24954106017844]]]}}, {"type": "Feature", "properties": {"State": "TX", "County": "Travis", "City": "Austin", "Name": "Chestnut", "RegionID": "271327"}, "geometry": {"type": "Polygon", "coordinates": [[[-97.71889793199995, 30.273950972178056], [-97.72130437299988, 30.279877849177943], [-97.70860158499994, 30.281962594177894], [-97.71076318399992, 30.27533336317802], [-97.71889793199995, 30.273950972178056]]]}}, {"type": "Feature", "properties": {"State": "TX", "County": "Travis", "City": "Austin", "Name": "East Congress", "RegionID": "271361"}, "geometry": {"type": "Polygon", "coordinates": [[[-97.7645065509999, 30.198176730179274], [-97.77475398599995, 30.204984933179137], [-97.76358593499991, 30.223478999178855], [-97.75190686899992, 30.21582193117897], [-97.7645065509999, 30.198176730179274]]]}}, {"type": "Feature", "properties": {"State": "TX", "County": "Travis", "City": "Austin", "Name": "MLK", "RegionID": "271474"}, "geometry": {"type": "Polygon", "coordinates": [[[-97.68016392599992, 30.289636012177795], [-97.6894079239999, 30.275545011178032], [-97.69550292899993, 30.26560449817818], [-97.70718145399991, 30.289303101177804], [-97.68016392599992, 30.289636012177795]]]}}, {"type": "Feature", "properties": {"State": "TX", "County": "Travis", "City": "Austin", "Name": "North University", "RegionID": "271501"}, "geometry": {"type": "Polygon", "coordinates": [[[-97.73302992499993, 30.293699011177715], [-97.74124659299991, 30.29201660517775], [-97.73811685599992, 30.302782940177618], [-97.72984208199995, 30.298754249177644], [-97.73302992499993, 30.293699011177715]]]}}, {"type": "Feature", "properties": {"State": "TX", "County": "Travis", "City": "Austin", "Name": "Garrison Park", "RegionID": "271395"}, "geometry": {"type": "Polygon", "coordinates": [[[-97.806568, 30.221842999178865], [-97.78159951899994, 30.20860068317913], [-97.7878766799999, 30.197310610179265], [-97.81796109399994, 30.208206963179105], [-97.806568, 30.221842999178865]]]}}, {"type": "Feature", "properties": {"State": "TX", "County": "Travis", "City": "Austin", "Name": "Heritage Hills", "RegionID": "271422"}, "geometry": {"type": "Polygon", "coordinates": [[[-97.6832829249999, 30.337406011177052], [-97.70022197999992, 30.33933594117698], [-97.6880849289999, 30.35830601817668], [-97.67585477099993, 30.350835998176827], [-97.6832829249999, 30.337406011177052]]]}}, {"type": "Feature", "properties": {"State": "TX", "County": "Travis", "City": "Austin", "Name": "Holly", "RegionID": "274045"}, "geometry": {"type": "Polygon", "coordinates": [[[-97.7134319999999, 30.25102099917839], [-97.72366395299991, 30.246329421178523], [-97.7295635029999, 30.247972429178468], [-97.72211991499995, 30.262558066178215], [-97.7134319999999, 30.25102099917839]]]}}, {"type": "Feature", "properties": {"State": "TX", "County": "Travis", "City": "Austin", "Name": "RMMA", "RegionID": "271551"}, "geometry": {"type": "Polygon", "coordinates": [[[-97.69030201699991, 30.299221145177615], [-97.70130191999993, 30.287536823177856], [-97.71320697699991, 30.305212262177527], [-97.71040384499992, 30.309555705177495], [-97.69030201699991, 30.299221145177615]]]}}, {"type": "Feature", "properties": {"State": "TX", "County": "Travis", "City": "Austin", "Name": "South River City", "RegionID": "271574"}, "geometry": {"type": "Polygon", "coordinates": [[[-97.74505842999992, 30.261601412178234], [-97.7355595169999, 30.250324772178413], [-97.74124090899994, 30.233799997178686], [-97.75355792399995, 30.238801008178584], [-97.74505842999992, 30.261601412178234]]]}}, {"type": "Feature", "properties": {"State": "TX", "County": "Travis", "City": "Austin", "Name": "Southeast", "RegionID": "271576"}, "geometry": {"type": "Polygon", "coordinates": [[[-97.6834339249999, 30.21215801017904], [-97.68782669899991, 30.182859378179497], [-97.71661163399993, 30.205691459179175], [-97.68330383699993, 30.22177596117887], [-97.6834339249999, 30.21215801017904]]]}}, {"type": "Feature", "properties": {"State": "TX", "County": "Travis", "City": "Austin", "Name": "North Lamar", "RegionID": "271497"}, "geometry": {"type": "Polygon", "coordinates": [[[-97.68518195699993, 30.38117495417632], [-97.67614996399992, 30.377069074176394], [-97.6880849289999, 30.35830601817668], [-97.69693200299992, 30.363213048176625], [-97.68518195699993, 30.38117495417632]]]}}, {"type": "Feature", "properties": {"State": "TX", "County": "Travis", "City": "Austin", "Name": "Triangle State", "RegionID": "271611"}, "geometry": {"type": "Polygon", "coordinates": [[[-97.72359117599989, 30.315980420177375], [-97.73811685599992, 30.302782940177618], [-97.74319587799994, 30.305271787177556], [-97.73099154099992, 30.318920266177326], [-97.72359117599989, 30.315980420177375]]]}}, {"type": "Feature", "properties": {"State": "TX", "County": "Travis", "City": "Austin", "Name": "Parker Lane", "RegionID": "271529"}, "geometry": {"type": "Polygon", "coordinates": [[[-97.73486793699993, 30.231048948178753], [-97.71035788799992, 30.215104926179023], [-97.71245493099991, 30.212204016179072], [-97.7520139499999, 30.215649074178977], [-97.73486793699993, 30.231048948178753]]]}}, {"type": "Feature", "properties": {"State": "TX", "County": "Travis", "City": "Austin", "Name": "Upper Boggy Creek", "RegionID": "271616"}, "geometry": {"type": "Polygon", "coordinates": [[[-97.70863657799991, 30.29676160517769], [-97.7064834379999, 30.286410974177862], [-97.72521522999995, 30.279212549177966], [-97.71320697699991, 30.305212262177527], [-97.70863657799991, 30.29676160517769]]]}}, {"type": "Feature", "properties": {"State": "TX", "County": "Travis", "City": "Austin", "Name": "West Congress", "RegionID": "271632"}, "geometry": {"type": "Polygon", "coordinates": [[[-97.77454992499992, 30.205524010179175], [-97.78159951899994, 30.20860068317913], [-97.76924892699992, 30.226913001178804], [-97.76358593499991, 30.223478999178855], [-97.77454992499992, 30.205524010179175]]]}}, {"type": "Feature", "properties": {"State": "TX", "County": "Travis", "City": "Austin", "Name": "West University", "RegionID": "271635"}, "geometry": {"type": "Polygon", "coordinates": [[[-97.7418457689999, 30.28500385717785], [-97.75319635399988, 30.287025790177854], [-97.74319587799994, 30.305271787177556], [-97.73811685599992, 30.302782940177618], [-97.7418457689999, 30.28500385717785]]]}}, {"type": "Feature", "properties": {"State": "TX", "County": "Travis", "City": "Austin", "Name": "South Lamar", "RegionID": "271570"}, "geometry": {"type": "Polygon", "coordinates": [[[-97.77565692499991, 30.229987011178736], [-97.7827709259999, 30.228462010178813], [-97.79561994899989, 30.234283102178676], [-97.7699808349999, 30.248414175178432], [-97.77565692499991, 30.229987011178736]]]}}, {"type": "Feature", "properties": {"State": "TX", "County": "Travis", "City": "Austin", "Name": "South Manchaca", "RegionID": "271572"}, "geometry": {"type": "Polygon", "coordinates": [[[-97.77633788799994, 30.228059954178782], [-97.78159951899994, 30.20860068317913], [-97.79762294499994, 30.215461901179005], [-97.7880608989999, 30.230377099178742], [-97.77633788799994, 30.228059954178782]]]}}, {"type": "Feature", "properties": {"State": "TX", "County": "Travis", "City": "Austin", "Name": "Windsor Hills", "RegionID": "271651"}, "geometry": {"type": "Polygon", "coordinates": [[[-97.66851992499993, 30.362971011176615], [-97.6759829299999, 30.35090595517682], [-97.6880849289999, 30.35830601817668], [-97.67614996399992, 30.377069074176394], [-97.66851992499993, 30.362971011176615]]]}}, {"type": "Feature", "properties": {"State": "TX", "County": "Travis", "City": "Austin", "Name": "Windsor Park", "RegionID": "271652"}, "geometry": {"type": "Polygon", "coordinates": [[[-97.6790798859999, 30.32136801117727], [-97.68927386799993, 30.294171049177706], [-97.71040384499992, 30.309555705177495], [-97.7065792169999, 30.32181213117726], [-97.6790798859999, 30.32136801117727]]]}}, {"type": "Feature", "properties": {"State": "TX", "County": "Travis", "City": "Austin", "Name": "Zilker", "RegionID": "271667"}, "geometry": {"type": "Polygon", "coordinates": [[[-97.7567837279999, 30.26575964317819], [-97.76902189599991, 30.246070007178496], [-97.78467925099994, 30.246185188178508], [-97.7708130109999, 30.26080611317825], [-97.7567837279999, 30.26575964317819]]]}}, {"type": "Feature", "properties": {"State": "TX", "County": "Travis", "City": "Austin", "Name": "St. Johns", "RegionID": "271588"}, "geometry": {"type": "Polygon", "coordinates": [[[-97.7008729239999, 30.339572012176998], [-97.68623390399995, 30.3326681021771], [-97.71132252599995, 30.320943823177267], [-97.7079622469999, 30.33640473617705], [-97.7008729239999, 30.339572012176998]]]}}, {"type": "Feature", "properties": {"State": "TX", "County": "Travis", "City": "Austin", "Name": "University Hills", "RegionID": "271613"}, "geometry": {"type": "Polygon", "coordinates": [[[-97.67092692499995, 30.32385701117725], [-97.66311592499994, 30.315425011177364], [-97.6625448219999, 30.29686404417767], [-97.68147992399992, 30.315603012177352], [-97.67092692499995, 30.32385701117725]]]}}, {"type": "Feature", "properties": {"State": "TX", "County": "Travis", "City": "Austin", "Name": "Wooten", "RegionID": "271665"}, "geometry": {"type": "Polygon", "coordinates": [[[-97.7134241139999, 30.349851797176843], [-97.73089692399992, 30.356147016176728], [-97.72652387099993, 30.37344608717642], [-97.71924492799991, 30.36923300917653], [-97.7134241139999, 30.349851797176843]]]}}, {"type": "Feature", "properties": {"State": "TX", "County": "Travis", "City": "Austin", "Name": "Coronado Hills", "RegionID": "273354"}, "geometry": {"type": "Polygon", "coordinates": [[[-97.68585592499994, 30.33249101117709], [-97.67325994599992, 30.325696101177204], [-97.69534687099991, 30.321472916177264], [-97.69007792399992, 30.329531011177167], [-97.68585592499994, 30.33249101117709]]]}}, {"type": "Feature", "properties": {"State": "TX", "County": "Travis", "City": "Austin", "Name": "Dawson", "RegionID": "273440"}, "geometry": {"type": "Polygon", "coordinates": [[[-97.7634799249999, 30.22366301017884], [-97.76924892699992, 30.226913001178804], [-97.75959093599994, 30.24213511317856], [-97.75355792399995, 30.238801008178584], [-97.7634799249999, 30.22366301017884]]]}}, {"type": "Feature", "properties": {"State": "TX", "County": "Travis", "City": "Austin", "Name": "North Austin", "RegionID": "274685"}, "geometry": {"type": "Polygon", "coordinates": [[[-97.69698893899994, 30.3826879741763], [-97.6876829209999, 30.379539015176363], [-97.71258835799995, 30.347809244176858], [-97.72186411899992, 30.37472145217642], [-97.69698893899994, 30.3826879741763]]]}}, {"type": "Feature", "properties": {"State": "TX", "County": "Travis", "City": "Austin", "Name": "Old West Austin", "RegionID": "274900"}, "geometry": {"type": "Polygon", "coordinates": [[[-97.75058835699991, 30.28010486717796], [-97.7567837279999, 30.26575964317819], [-97.77163409999991, 30.27382317417806], [-97.76418343099994, 30.28607624517784], [-97.75058835699991, 30.28010486717796]]]}}, {"type": "Feature", "properties": {"State": "TX", "County": "Travis", "City": "Austin", "Name": "Sweet Briar", "RegionID": "275649"}, "geometry": {"type": "Polygon", "coordinates": [[[-97.76907496299991, 30.192441024179352], [-97.7878766799999, 30.197310610179265], [-97.78159951899994, 30.20860068317913], [-97.76452750399994, 30.198152246179262], [-97.76907496299991, 30.192441024179352]]]}}, {"type": "Feature", "properties": {"State": "TX", "County": "Travis", "City": "Austin", "Name": "Hancock", "RegionID": "273924"}, "geometry": {"type": "Polygon", "coordinates": [[[-97.71664069799994, 30.303613337177556], [-97.7251746729999, 30.286208348177837], [-97.73468006499989, 30.289371897177794], [-97.72456389899992, 30.30704580917754], [-97.71664069799994, 30.303613337177556]]]}}, {"type": "Feature", "properties": {"State": "TX", "County": "Travis", "City": "Austin", "Name": "Highland", "RegionID": "273989"}, "geometry": {"type": "Polygon", "coordinates": [[[-97.70950395499993, 30.33172644517711], [-97.71132252599995, 30.320943823177267], [-97.72646010499994, 30.325943540177224], [-97.71258835799995, 30.347809244176858], [-97.70950395499993, 30.33172644517711]]]}}, {"type": "Feature", "properties": {"State": "TX", "County": "Travis", "City": "Austin", "Name": "West Gate", "RegionID": "275969"}, "geometry": {"type": "Polygon", "coordinates": [[[-97.7933989249999, 30.221977011178907], [-97.80719009699993, 30.21896897117896], [-97.803689, 30.231856999178714], [-97.7880608989999, 30.230377099178742], [-97.7933989249999, 30.221977011178907]]]}}, {"type": "Feature", "properties": {"State": "TX", "County": "Travis", "City": "Austin", "Name": "North Burnett", "RegionID": "276473"}, "geometry": {"type": "Polygon", "coordinates": [[[-97.71176692499995, 30.410062198175833], [-97.71771723099992, 30.376475598176388], [-97.73786525899993, 30.379597001176368], [-97.7294396239999, 30.402073362175976], [-97.71176692499995, 30.410062198175833]]]}}, {"type": "Feature", "properties": {"State": "TX", "County": "Travis", "City": "Austin", "Name": "Riverside", "RegionID": "276540"}, "geometry": {"type": "Polygon", "coordinates": [[[-97.73105992799992, 30.248419236178457], [-97.71349759899994, 30.25023272917842], [-97.72776491799992, 30.22749090717878], [-97.74124090899994, 30.233799997178686], [-97.73105992799992, 30.248419236178457]]]}}, {"type": "Feature", "properties": {"State": "TX", "County": "Travis", "City": "Austin", "Name": "North Loop", "RegionID": "274730"}, "geometry": {"type": "Polygon", "coordinates": [[[-97.72214127399991, 30.322950311177237], [-97.7065792169999, 30.32181213117726], [-97.71525977699991, 30.30194594017758], [-97.73099154099992, 30.318920266177326], [-97.72214127399991, 30.322950311177237]]]}}, {"type": "Feature", "properties": {"State": "TX", "County": "Travis", "City": "Austin", "Name": "Mckinney", "RegionID": "274474"}, "geometry": {"type": "Polygon", "coordinates": [[[-97.73878792599993, 30.216114010178984], [-97.70907192899995, 30.201102012179252], [-97.74474864899992, 30.180150437179563], [-97.7534979799999, 30.21312402617902], [-97.73878792599993, 30.216114010178984]]]}}, {"type": "Feature", "properties": {"State": "TX", "County": "Travis", "City": "Austin", "Name": "Pleasant Valley", "RegionID": "275057"}, "geometry": {"type": "Polygon", "coordinates": [[[-97.70831755599994, 30.250478370178406], [-97.69108685999993, 30.243982006178523], [-97.71035788799992, 30.215104926179023], [-97.72776491799992, 30.22749090717878], [-97.70831755599994, 30.250478370178406]]]}}, {"type": "Feature", "properties": {"State": "TX", "County": "Travis", "City": "Austin", "Name": "Rosedale", "RegionID": "275246"}, "geometry": {"type": "Polygon", "coordinates": [[[-97.74608994699992, 30.32604895117721], [-97.73752183699992, 30.31368737217739], [-97.74319587799994, 30.305271787177556], [-97.75748570099995, 30.308710474177484], [-97.74608994699992, 30.32604895117721]]]}}, {"type": "Feature", "properties": {"State": "TX", "County": "Travis", "City": "Austin", "Name": "Rosewood", "RegionID": "275255"}, "geometry": {"type": "Polygon", "coordinates": [[[-97.70432292399994, 30.283044012177896], [-97.69791687999992, 30.273598048178027], [-97.71327990899994, 30.263236941178207], [-97.71994737299991, 30.273881654178073], [-97.70432292399994, 30.283044012177896]]]}}, {"type": "Feature", "properties": {"State": "TX", "County": "Travis", "City": "Austin", "Name": "Pecan Springs Springdale", "RegionID": "274993"}, "geometry": {"type": "Polygon", "coordinates": [[[-97.6675980359999, 30.308049991177494], [-97.66550882599994, 30.285695848177827], [-97.68263194299992, 30.285853146177868], [-97.68567692399995, 30.300428011177612], [-97.6675980359999, 30.308049991177494]]]}}, {"type": "Feature", "properties": {"State": "TX", "County": "Travis", "City": "Austin", "Name": "East Oak Hill", "RegionID": "416969"}, "geometry": {"type": "Polygon", "coordinates": [[[-97.83111572299993, 30.27046056717813], [-97.81095748599994, 30.240491907178622], [-97.85094, 30.217179999178942], [-97.86645690899991, 30.25348680017838], [-97.83111572299993, 30.27046056717813]]]}}, {"type": "Feature", "properties": {"State": "TX", "County": "Travis", "City": "Austin", "Name": "MLK 183", "RegionID": "276459"}, "geometry": {"type": "Polygon", "coordinates": [[[-97.65389192499991, 30.302898012177575], [-97.66343739299992, 30.26476903017821], [-97.69457400899995, 30.26244799217825], [-97.68263194299992, 30.285853146177868], [-97.65389192499991, 30.302898012177575]]]}}, {"type": "Feature", "properties": {"State": "TX", "County": "Travis", "City": "Austin", "Name": "West Oak Hill", "RegionID": "416968"}, "geometry": {"type": "Polygon", "coordinates": [[[-97.8840291219999, 30.26028776117828], [-97.85503, 30.224929999178862], [-97.88154700399991, 30.213720225179035], [-97.927392, 30.24632799917849], [-97.8840291219999, 30.26028776117828]]]}}, {"type": "Feature", "properties": {"State": "TX", "County": "Travis", "City": "Pflugerville", "Name": "The Park at Blackhawk", "RegionID": "763990"}, "geometry": {"type": "Polygon", "coordinates": [[[-97.55686940499999, 30.47697078317478], [-97.56650146299994, 30.4768660871748], [-97.57290697199994, 30.473925073174854], [-97.57040198199995, 30.483010647174684], [-97.55686940499999, 30.47697078317478]]]}}, {"type": "Feature", "properties": {"State": "TX", "County": "Travis", "City": "Pflugerville", "Name": "The Commons at Rowe Lane", "RegionID": "763991"}, "geometry": {"type": "Polygon", "coordinates": [[[-97.56601573599994, 30.489463112174587], [-97.56717310599998, 30.48262549317468], [-97.57483306699999, 30.48353920617465], [-97.57366046799996, 30.490468196174554], [-97.56601573599994, 30.489463112174587]]]}}, {"type": "Feature", "properties": {"State": "TX", "County": "Travis", "City": "Pflugerville", "Name": "Ridge at Steeds Crossing", "RegionID": "763992"}, "geometry": {"type": "Polygon", "coordinates": [[[-97.57616302799993, 30.501796490174385], [-97.57312849999994, 30.499888406174428], [-97.57366046799996, 30.490468196174554], [-97.58136611499997, 30.491473281174567], [-97.57616302799993, 30.501796490174385]]]}}, {"type": "Feature", "properties": {"State": "TX", "County": "Travis", "City": "Pflugerville", "Name": "Shallow Creek", "RegionID": "763993"}, "geometry": {"type": "Polygon", "coordinates": [[[-97.59135908999997, 30.485475516174642], [-97.59785025899998, 30.487321978174613], [-97.59653679699994, 30.49366086217451], [-97.58985526999999, 30.4937560401745], [-97.59135908999997, 30.485475516174642]]]}}, {"type": "Feature", "properties": {"State": "TX", "County": "Travis", "City": "Pflugerville", "Name": "Northtown West", "RegionID": "764007"}, "geometry": {"type": "Polygon", "coordinates": [[[-97.64637328299995, 30.42188358017564], [-97.65212126199997, 30.41302947617581], [-97.65682574399995, 30.416787566175717], [-97.64989107799994, 30.423631056175658], [-97.64637328299995, 30.42188358017564]]]}}, {"type": "Feature", "properties": {"State": "TX", "County": "Travis", "City": "Pflugerville", "Name": "Wildflower", "RegionID": "764008"}, "geometry": {"type": "Polygon", "coordinates": [[[-97.65481370699996, 30.41989625417566], [-97.65682574399995, 30.416787566175717], [-97.66088989899997, 30.419496505175676], [-97.65832008099994, 30.423459735175612], [-97.65481370699996, 30.41989625417566]]]}}, {"type": "Feature", "properties": {"State": "TX", "County": "Travis", "City": "Pflugerville", "Name": "Dessau Estates", "RegionID": "764009"}, "geometry": {"type": "Polygon", "coordinates": [[[-97.62545853499995, 30.410159500175862], [-97.62837099499995, 30.405659463175922], [-97.63618290299996, 30.40447982417595], [-97.63308734799995, 30.41382127517582], [-97.62545853499995, 30.410159500175862]]]}}, {"type": "Feature", "properties": {"State": "TX", "County": "Travis", "City": "Pflugerville", "Name": "Pflugerville West", "RegionID": "764010"}, "geometry": {"type": "Polygon", "coordinates": [[[-97.62805660299995, 30.443282137175284], [-97.62262102799997, 30.440739960175385], [-97.62635691499997, 30.435435567175453], [-97.63371743299994, 30.441509345175326], [-97.62805660299995, 30.443282137175284]]]}}, {"type": "Feature", "properties": {"State": "TX", "County": "Travis", "City": "Pflugerville", "Name": "Spring Willow Creek", "RegionID": "764057"}, "geometry": {"type": "Polygon", "coordinates": [[[-97.65950258499998, 30.440717674175332], [-97.66440784599996, 30.443664837175326], [-97.66202473299995, 30.447738553175263], [-97.65852922, 30.44654220417528], [-97.65950258499998, 30.440717674175332]]]}}, {"type": "Feature", "properties": {"State": "TX", "County": "Travis", "City": "Pflugerville", "Name": "Fairways of Blackhawk", "RegionID": "763987"}, "geometry": {"type": "Polygon", "coordinates": [[[-97.56897499899998, 30.47184529717487], [-97.57460956199998, 30.462841417174985], [-97.58519816399996, 30.467852562174933], [-97.57949789999998, 30.476840515174775], [-97.56897499899998, 30.47184529717487]]]}}, {"type": "Feature", "properties": {"State": "TX", "County": "Travis", "City": "Pflugerville", "Name": "Meadows of Blackhawk", "RegionID": "763989"}, "geometry": {"type": "Polygon", "coordinates": [[[-97.57189808099997, 30.477589443174757], [-97.58160247499995, 30.47786609517478], [-97.58007962, 30.48420117217464], [-97.57040198199995, 30.483010647174684], [-97.57189808099997, 30.477589443174757]]]}}, {"type": "Feature", "properties": {"State": "TX", "County": "Travis", "City": "Pflugerville", "Name": "Spring Trails", "RegionID": "763994"}, "geometry": {"type": "Polygon", "coordinates": [[[-97.62683041299994, 30.47811330517478], [-97.62491161599996, 30.479011789174766], [-97.62303850399995, 30.472478741174875], [-97.63180630699998, 30.47892628417475], [-97.62683041299994, 30.47811330517478]]]}}, {"type": "Feature", "properties": {"State": "TX", "County": "Travis", "City": "Pflugerville", "Name": "Saxony", "RegionID": "763996"}, "geometry": {"type": "Polygon", "coordinates": [[[-97.60785893499997, 30.44605196817527], [-97.61807097199994, 30.445879067175284], [-97.61744451499999, 30.450848962175193], [-97.61122444499995, 30.447498681175254], [-97.60785893499997, 30.44605196817527]]]}}, {"type": "Feature", "properties": {"State": "TX", "County": "Travis", "City": "Pflugerville", "Name": "Cambridge Estates", "RegionID": "764003"}, "geometry": {"type": "Polygon", "coordinates": [[[-97.61626092399996, 30.42606702317562], [-97.61975139799995, 30.432443041175485], [-97.61391315199995, 30.43663469917544], [-97.61044865699995, 30.43497859517546], [-97.61626092399996, 30.42606702317562]]]}}, {"type": "Feature", "properties": {"State": "TX", "County": "Travis", "City": "Pflugerville", "Name": "Boulder Ridge", "RegionID": "764005"}, "geometry": {"type": "Polygon", "coordinates": [[[-97.60566761199999, 30.41906325017572], [-97.59985106599997, 30.412933428175837], [-97.60611264399995, 30.402955174175954], [-97.61044135999997, 30.410104978175827], [-97.60566761199999, 30.41906325017572]]]}}, {"type": "Feature", "properties": {"State": "TX", "County": "Travis", "City": "Pflugerville", "Name": "Brookfield Estates", "RegionID": "764012"}, "geometry": {"type": "Polygon", "coordinates": [[[-97.62744915699994, 30.423107706175628], [-97.63334311699998, 30.41340000817579], [-97.64344795799997, 30.426223511175564], [-97.63689206699996, 30.429352978175537], [-97.62744915699994, 30.423107706175628]]]}}, {"type": "Feature", "properties": {"State": "TX", "County": "Travis", "City": "Pflugerville", "Name": "Wells Point", "RegionID": "764014"}, "geometry": {"type": "Polygon", "coordinates": [[[-97.63509890499994, 30.440808655175363], [-97.64031849099996, 30.431271775175528], [-97.64682108199997, 30.434424085175447], [-97.64337942899999, 30.442708416175336], [-97.63509890499994, 30.440808655175363]]]}}, {"type": "Feature", "properties": {"State": "TX", "County": "Travis", "City": "Pflugerville", "Name": "Meadows at Cambridge Heights", "RegionID": "764019"}, "geometry": {"type": "Polygon", "coordinates": [[[-97.65191354099994, 30.4759710491748], [-97.65354300199999, 30.466739057174916], [-97.65448336499998, 30.46687230717496], [-97.65643261899999, 30.47702975017476], [-97.65191354099994, 30.4759710491748]]]}}, {"type": "Feature", "properties": {"State": "TX", "County": "Travis", "City": "Pflugerville", "Name": "Falcon Pointe", "RegionID": "763986"}, "geometry": {"type": "Polygon", "coordinates": [[[-97.57163999499994, 30.46147084717501], [-97.57550423999999, 30.4552842491751], [-97.58614899699995, 30.459460678175077], [-97.58256959099998, 30.46660856817496], [-97.57163999499994, 30.46147084717501]]]}}, {"type": "Feature", "properties": {"State": "TX", "County": "Travis", "City": "Pflugerville", "Name": "Falcon Pointe", "RegionID": "763988"}, "geometry": {"type": "Polygon", "coordinates": [[[-97.57949789999998, 30.476840515174775], [-97.58519816399996, 30.467852562174933], [-97.59162270899998, 30.472135591174837], [-97.58664963499994, 30.48032093717471], [-97.57949789999998, 30.476840515174775]]]}}, {"type": "Feature", "properties": {"State": "TX", "County": "Travis", "City": "Pflugerville", "Name": "Willow Creek", "RegionID": "763995"}, "geometry": {"type": "Polygon", "coordinates": [[[-97.61002583099997, 30.44262364117533], [-97.61580316299995, 30.439949127175336], [-97.61807097199994, 30.445879067175284], [-97.61640278699997, 30.4456217621753], [-97.61002583099997, 30.44262364117533]]]}}, {"type": "Feature", "properties": {"State": "TX", "County": "Travis", "City": "Pflugerville", "Name": "Katymead", "RegionID": "763997"}, "geometry": {"type": "Polygon", "coordinates": [[[-97.61443766899998, 30.455988598175146], [-97.60986910399998, 30.44967636317519], [-97.61122444499995, 30.447498681175254], [-97.61744451499999, 30.450848962175193], [-97.61443766899998, 30.455988598175146]]]}}, {"type": "Feature", "properties": {"State": "TX", "County": "Travis", "City": "Pflugerville", "Name": "Bluebonnet Acres", "RegionID": "764004"}, "geometry": {"type": "Polygon", "coordinates": [[[-97.62469306199995, 30.41131723417584], [-97.62545853499995, 30.410159500175862], [-97.63308734799995, 30.41382127517582], [-97.63135701699997, 30.41667123117574], [-97.62469306199995, 30.41131723417584]]]}}, {"type": "Feature", "properties": {"State": "TX", "County": "Travis", "City": "Pflugerville", "Name": "Northtown Park", "RegionID": "764006"}, "geometry": {"type": "Polygon", "coordinates": [[[-97.64291259499998, 30.41883406317572], [-97.645392, 30.413155999175746], [-97.64861057699994, 30.40954820317584], [-97.64491134199994, 30.4241792841756], [-97.64291259499998, 30.41883406317572]]]}}, {"type": "Feature", "properties": {"State": "TX", "County": "Travis", "City": "Pflugerville", "Name": "Settlers Ridge", "RegionID": "764011"}, "geometry": {"type": "Polygon", "coordinates": [[[-97.63048871499996, 30.437556296175426], [-97.62629705699999, 30.434758050175475], [-97.62505964199994, 30.429434197175507], [-97.63713191699998, 30.43399007117544], [-97.63048871499996, 30.437556296175426]]]}}, {"type": "Feature", "properties": {"State": "TX", "County": "Travis", "City": "Pflugerville", "Name": "Settlers Meadow", "RegionID": "764013"}, "geometry": {"type": "Polygon", "coordinates": [[[-97.63488189799995, 30.43257381617548], [-97.63689206699996, 30.429352978175537], [-97.64176900999996, 30.42895322817555], [-97.63768610099999, 30.43531849017542], [-97.63488189799995, 30.43257381617548]]]}}, {"type": "Feature", "properties": {"State": "TX", "County": "Travis", "City": "Pflugerville", "Name": "Cantarra", "RegionID": "764056"}, "geometry": {"type": "Polygon", "coordinates": [[[-97.61802801199997, 30.387129891176237], [-97.6274156899999, 30.391678100176115], [-97.62812115699995, 30.39364257817613], [-97.61633004999999, 30.396306960176073], [-97.61802801199997, 30.387129891176237]]]}}, {"type": "Feature", "properties": {"State": "TX", "County": "Travis", "City": "Pflugerville", "Name": "North Park", "RegionID": "763984"}, "geometry": {"type": "Polygon", "coordinates": [[[-97.65472157299995, 30.456488383175117], [-97.65610026599995, 30.448830294175227], [-97.66156849299995, 30.448715922175243], [-97.66365415699993, 30.456422578175108], [-97.65472157299995, 30.456488383175117]]]}}, {"type": "Feature", "properties": {"State": "TX", "County": "Travis", "City": "Pflugerville", "Name": "Villages of Hidden Lake", "RegionID": "763985"}, "geometry": {"type": "Polygon", "coordinates": [[[-97.56050697299997, 30.44887874017521], [-97.56891313299997, 30.43567558617544], [-97.57870509099996, 30.440107094175342], [-97.57397679399998, 30.457738944175105], [-97.56050697299997, 30.44887874017521]]]}}, {"type": "Feature", "properties": {"State": "TX", "County": "Travis", "City": "Pflugerville", "Name": "Parkcrest", "RegionID": "763998"}, "geometry": {"type": "Polygon", "coordinates": [[[-97.61681260399996, 30.455971103175138], [-97.61744451499999, 30.450848962175193], [-97.62242044399994, 30.452417820175153], [-97.61938694799994, 30.458387094175063], [-97.61681260399996, 30.455971103175138]]]}}, {"type": "Feature", "properties": {"State": "TX", "County": "Travis", "City": "Pflugerville", "Name": "Brookhollow", "RegionID": "763999"}, "geometry": {"type": "Polygon", "coordinates": [[[-97.62115647399997, 30.451876889175182], [-97.61744451499999, 30.450848962175193], [-97.61815835299994, 30.44518584517531], [-97.62381222, 30.450199677175203], [-97.62115647399997, 30.451876889175182]]]}}, {"type": "Feature", "properties": {"State": "TX", "County": "Travis", "City": "Pflugerville", "Name": "Swenson Farms", "RegionID": "764000"}, "geometry": {"type": "Polygon", "coordinates": [[[-97.62616793599994, 30.457618528175093], [-97.62894333899999, 30.45325554917515], [-97.63232407799995, 30.454820282175135], [-97.62909305399995, 30.459848846175042], [-97.62616793599994, 30.457618528175093]]]}}, {"type": "Feature", "properties": {"State": "TX", "County": "Travis", "City": "Pflugerville", "Name": "Heatherwilde", "RegionID": "764001"}, "geometry": {"type": "Polygon", "coordinates": [[[-97.62909305399995, 30.459848846175042], [-97.63232407799995, 30.454820282175135], [-97.64033955899998, 30.457262025175062], [-97.63301591099996, 30.468519753174917], [-97.62909305399995, 30.459848846175042]]]}}, {"type": "Feature", "properties": {"State": "TX", "County": "Travis", "City": "Pflugerville", "Name": "Bohl's Place", "RegionID": "764002"}, "geometry": {"type": "Polygon", "coordinates": [[[-97.60238133199994, 30.442400609175326], [-97.60515618699998, 30.432469020175468], [-97.61044865699995, 30.43497859517546], [-97.60770180699996, 30.44199134217533], [-97.60238133199994, 30.442400609175326]]]}}, {"type": "Feature", "properties": {"State": "TX", "County": "Travis", "City": "Pflugerville", "Name": "Spring Hill Village", "RegionID": "764015"}, "geometry": {"type": "Polygon", "coordinates": [[[-97.64595043699995, 30.443999036175278], [-97.65063321599996, 30.43683400317541], [-97.65660367399994, 30.439554353175367], [-97.65194865799997, 30.446836468175267], [-97.64595043699995, 30.443999036175278]]]}}, {"type": "Feature", "properties": {"State": "TX", "County": "Travis", "City": "Pflugerville", "Name": "Sarah's Creek", "RegionID": "764016"}, "geometry": {"type": "Polygon", "coordinates": [[[-97.65194865799997, 30.446836468175267], [-97.65660367399994, 30.439554353175367], [-97.66202473299995, 30.447738553175263], [-97.65849114799992, 30.449774464175235], [-97.65194865799997, 30.446836468175267]]]}}, {"type": "Feature", "properties": {"State": "TX", "County": "Travis", "City": "Pflugerville", "Name": "Picadilly Ridge", "RegionID": "764017"}, "geometry": {"type": "Polygon", "coordinates": [[[-97.63301591099996, 30.468519753174917], [-97.63538604899998, 30.464842150174945], [-97.64418886499999, 30.466602000174955], [-97.64123071899996, 30.47230128417488], [-97.63301591099996, 30.468519753174917]]]}}, {"type": "Feature", "properties": {"State": "TX", "County": "Travis", "City": "Pflugerville", "Name": "Cambridge Heights", "RegionID": "764018"}, "geometry": {"type": "MultiPolygon", "coordinates": [[[[-97.63352554799995, 30.476235961174773], [-97.62199753599998, 30.47062328817488], [-97.62366315799993, 30.46788690817494], [-97.64079527799998, 30.472265117174857], [-97.63352554799995, 30.476235961174773]]], [[[-97.64394274399996, 30.47908000817472], [-97.64123071899996, 30.47230128417488], [-97.64418886499999, 30.466602000174955], [-97.65368525499997, 30.473134937174837], [-97.64394274399996, 30.47908000817472]]]]}}]}